[{"code": "T0154", "name": "Ala (Convento)", "elevation": "165", "latitude": "45.757117", "longitude": "10.999871", "active": false, "locality": "ALA"}, {"code": "T0405", "name": "Ala (Maso Le Pozze)", "elevation": "170", "latitude": "45.786137", "longitude": "11.023828", "active": true, "locality": "MAIERE"}, {"code": "T0153", "name": "Ala (Ronchi)", "elevation": "692", "latitude": "45.73919", "longitude": "11.06545", "active": true, "locality": "ALA"}, {"code": "T0146", "name": "Aldeno (San Zeno)", "elevation": "182", "latitude": "45.968006", "longitude": "11.091231", "active": true, "locality": "ALDENO"}, {"code": "T0322", "name": "Arco (Arboreto)", "elevation": "115", "latitude": "45.922268", "longitude": "10.883035", "active": false, "locality": "ARCO"}, {"code": "T0401", "name": "Arco (Bruttagosto)", "elevation": "85", "latitude": "45.910374", "longitude": "10.887133", "active": true, "locality": "ARCO"}, {"code": "T0204", "name": "Bezzecca", "elevation": "698", "latitude": "45.896762", "longitude": "10.719079", "active": false, "locality": "BEZZECCA"}, {"code": "T0402", "name": "Bezzecca (Spessa)", "elevation": "710", "latitude": "45.895628", "longitude": "10.725025", "active": true, "locality": "BEZZECCA"}, {"code": "T0015", "name": "Bieno", "elevation": "843", "latitude": "46.081097", "longitude": "11.557174", "active": true, "locality": "BIENO"}, {"code": "T0222", "name": "Borgo Valsugana", "elevation": "385", "latitude": "46.052985", "longitude": "11.450479", "active": false, "locality": "BORGO VALSUGANA"}, {"code": "T0152", "name": "Brentonico", "elevation": "693", "latitude": "45.817224", "longitude": "10.953107", "active": false, "locality": "BRENTONICO"}, {"code": "T0155", "name": "Brentonico (Diga Di Pra' Da Stua)", "elevation": "1045", "latitude": "45.77223", "longitude": "10.904538", "active": false, "locality": "PRA' ALPESINA"}, {"code": "T0443", "name": "Brentonico (Santa Caterina)", "elevation": "727", "latitude": "45.824004", "longitude": "10.959756", "active": true, "locality": "BRENTONICO"}, {"code": "T0415", "name": "Bresimo (Malga Bordolona)", "elevation": "1815", "latitude": "46.433136", "longitude": "10.889328", "active": true, "locality": "MALGA BORDOLONA"}, {"code": "T0229", "name": "Campitello (Malga Do Col D'Aura)", "elevation": "2050", "latitude": "46.490938", "longitude": "11.65755", "active": true, "locality": "RIFUGIO ANTERMOIA"}, {"code": "T0323", "name": "Campodenno (frana)", "elevation": "610", "latitude": "46.25978", "longitude": "11.028379", "active": false, "locality": "CAMPODENNO"}, {"code": "T0030", "name": "Canal San Bovo", "elevation": "750", "latitude": "46.14956", "longitude": "11.734845", "active": true, "locality": "CANAL SAN BOVO"}, {"code": "T0403", "name": "Canazei (Ciampac)", "elevation": "2150", "latitude": "46.446031", "longitude": "11.769206", "active": true, "locality": "CIAMPAC"}, {"code": "T0445", "name": "Canazei (Coi de Paussa)", "elevation": "2376", "latitude": "46.47197", "longitude": "11.849001", "active": false, "locality": "RIFUGIO PIAN DEI FIACCONI"}, {"code": "T0437", "name": "Canazei (Gries)", "elevation": "1465", "latitude": "46.478318", "longitude": "11.766852", "active": true, "locality": "CANAZEI"}, {"code": "T0421", "name": "Caoria", "elevation": "803", "latitude": "46.192017", "longitude": "11.683911", "active": true, "locality": "RIFUGIO REFAVAIE"}, {"code": "T0029", "name": "Caoria (Centrale)", "elevation": "908", "latitude": "46.204415", "longitude": "11.661787", "active": false, "locality": "RIFUGIO REFAVAIE"}, {"code": "T0431", "name": "Capriana", "elevation": "1055", "latitude": "46.263079", "longitude": "11.33633", "active": true, "locality": "CAPRIANA"}, {"code": "T0065", "name": "Careser (Diga)", "elevation": "2600", "latitude": "46.422585", "longitude": "10.699111", "active": true, "locality": "RIFUGIO CEVEDALE GUIDO LARCHER"}, {"code": "T0308", "name": "Careser Alla Baia", "elevation": "2635", "latitude": "46.430843", "longitude": "10.706644", "active": true, "locality": "CIMA VENEZIA"}, {"code": "T0418", "name": "Castelfondo (Malga Castrin)", "elevation": "1815", "latitude": "46.510001", "longitude": "11.043574", "active": true, "locality": "MALGA CASTRIN"}, {"code": "T0469", "name": "Castello Tesino (Le Parti)", "elevation": "801", "latitude": "46.056924", "longitude": "11.629929", "active": true, "locality": "CASTELLO TESINO"}, {"code": "T0367", "name": "Cavalese", "elevation": "958", "latitude": "46.284782", "longitude": "11.451713", "active": true, "locality": "CAVALESE"}, {"code": "T0107", "name": "Cavalese (Convento)", "elevation": "1000", "latitude": "46.291128", "longitude": "11.459228", "active": false, "locality": "CAVALESE"}, {"code": "T0118", "name": "Cembra", "elevation": "652", "latitude": "46.170372", "longitude": "11.217711", "active": true, "locality": "CEMBRA"}, {"code": "T0009", "name": "Centa San Nicolo'", "elevation": "805", "latitude": "45.970142", "longitude": "11.234176", "active": true, "locality": "CENTA SAN NICOLO"}, {"code": "T0227", "name": "Cermis (Casere)", "elevation": "1900", "latitude": "46.250369", "longitude": "11.491486", "active": true, "locality": "CERMIS"}, {"code": "T0066", "name": "Cima Cavaion", "elevation": "2895", "latitude": "46.423023", "longitude": "10.715028", "active": true, "locality": "CIMA VENEZIA"}, {"code": "T0099", "name": "Cima Paganella", "elevation": "2125", "latitude": "46.143328", "longitude": "11.037329", "active": false, "locality": "RIFUGIO LA RODA (PAGANELLA)"}, {"code": "T0365", "name": "Cima Presena", "elevation": "3015", "latitude": "46.219964", "longitude": "10.583453", "active": true, "locality": "PRESENA"}, {"code": "T0377", "name": "Cima Rosetta", "elevation": "2685", "latitude": "46.264631", "longitude": "11.833081", "active": false, "locality": "RIFUGIO PEDROTTI ALLA ROSETTA"}, {"code": "T0160", "name": "Cimego (Centrale)", "elevation": "490", "latitude": "45.920353", "longitude": "10.627037", "active": false, "locality": "CIMEGO"}, {"code": "T0083", "name": "Cles (Convento)", "elevation": "665", "latitude": "46.361979", "longitude": "11.031249", "active": false, "locality": "CLES"}, {"code": "T0397", "name": "Cles (Maso Maiano)", "elevation": "655", "latitude": "46.361167", "longitude": "11.039903", "active": true, "locality": "CLES"}, {"code": "T0068", "name": "Cogolo Pont (Centrale)", "elevation": "1190", "latitude": "46.364993", "longitude": "10.688939", "active": false, "locality": "PEIO"}, {"code": "T0017", "name": "Costabrunella (Diga)", "elevation": "2030", "latitude": "46.131108", "longitude": "11.584927", "active": false, "locality": "CIMON RAVA"}, {"code": "T0156", "name": "Daone (Diga Di Malga Bissina)", "elevation": "1792", "latitude": "46.054815", "longitude": "10.513984", "active": false, "locality": "VALLE COP DI BREGUZZO"}, {"code": "T0157", "name": "Daone (Diga Di Malga Boazzo)", "elevation": "1200", "latitude": "45.996038", "longitude": "10.523796", "active": false, "locality": "VALLE DANERBA"}, {"code": "T0158", "name": "Daone (Diga Di Ponte Morandin)", "elevation": "720", "latitude": "45.948565", "longitude": "10.604272", "active": false, "locality": "VALDAONE"}, {"code": "T0373", "name": "Daone (Malga Bissina)", "elevation": "1785", "latitude": "46.052903", "longitude": "10.514122", "active": true, "locality": "VALLE COP DI BREGUZZO"}, {"code": "T0410", "name": "Daone (Pracul)", "elevation": "897", "latitude": "45.971466", "longitude": "10.563104", "active": true, "locality": "VAL DI DAONE"}, {"code": "T0233", "name": "Dare'", "elevation": "622", "latitude": "46.074889", "longitude": "10.716844", "active": false, "locality": "DARE"}, {"code": "T0086", "name": "Denno", "elevation": "426", "latitude": "46.273113", "longitude": "11.050857", "active": false, "locality": "DENNO"}, {"code": "T0382", "name": "Dos Del Sabion (Monte Grual)", "elevation": "1894", "latitude": "46.172255", "longitude": "10.811813", "active": true, "locality": "VAL DI CAMPIGLIO"}, {"code": "T0379", "name": "Dro (Marocche)", "elevation": "282", "latitude": "45.983947", "longitude": "10.94125", "active": true, "locality": "MAROCCHE"}, {"code": "T0210", "name": "Folgaria", "elevation": "1121", "latitude": "45.915349", "longitude": "11.164353", "active": true, "locality": "FOLGARIA"}, {"code": "T0427", "name": "Folgarida Alta", "elevation": "1368", "latitude": "46.30186", "longitude": "10.86522", "active": true, "locality": "FOLGARIDA"}, {"code": "T0994", "name": "Folgarida Bassa", "elevation": "1280", "latitude": "46.30356", "longitude": "10.85912", "active": true, "locality": "FOLGARIDA"}, {"code": "T0080", "name": "Fondo", "elevation": "987", "latitude": "46.439645", "longitude": "11.138035", "active": false, "locality": "FONDO"}, {"code": "T0399", "name": "Fondo", "elevation": "910", "latitude": "46.437705", "longitude": "11.129627", "active": true, "locality": "FONDO"}, {"code": "T0105", "name": "Forte Buso (Diga)", "elevation": "1480", "latitude": "46.305785", "longitude": "11.704387", "active": false, "locality": "VAL TRAVIGNOLO"}, {"code": "T0203", "name": "Forte D'Ampola", "elevation": "740", "latitude": "45.863893", "longitude": "10.646293", "active": false, "locality": "VAL D'AMPOLA"}, {"code": "T0473", "name": "Ghiacciaio Del Careser", "elevation": "3093", "latitude": "46.451278", "longitude": "10.718272", "active": true, "locality": "CIMA VENEZIA"}, {"code": "T0444", "name": "Ghiacciaio di Fradusta", "elevation": "2720", "latitude": "46.255107", "longitude": "11.871709", "active": true, "locality": "CIMA DI FRADUSTA"}, {"code": "T0439", "name": "Ghiacciaio Presena", "elevation": "2852", "latitude": "46.223067", "longitude": "10.583565", "active": false, "locality": "RIFUGIO CAPANNA PRESENA"}, {"code": "T0442", "name": "Ghiacciaio Presena (Passo Paradiso)", "elevation": "2587", "latitude": "46.238523", "longitude": "10.581405", "active": false, "locality": "RIFUGIO CAPANNA PRESENA"}, {"code": "T0426", "name": "Giustino (frana)", "elevation": "877", "latitude": "46.147487", "longitude": "10.775487", "active": true, "locality": "GIUSTINO"}, {"code": "T0423", "name": "Grigno", "elevation": "238", "latitude": "46.006312", "longitude": "11.656835", "active": true, "locality": "GRIGNO"}, {"code": "T0407", "name": "Grigno (Barricata)", "elevation": "1345", "latitude": "45.979906", "longitude": "11.590219", "active": true, "locality": "RIFUGIO BARRICATA"}, {"code": "T0113", "name": "Grumes", "elevation": "845", "latitude": "46.220745", "longitude": "11.29667", "active": false, "locality": "GRUMES"}, {"code": "T0178", "name": "La Rocca (Centrale)", "elevation": "943", "latitude": "46.022439", "longitude": "10.708152", "active": false, "locality": "GIUDICARIE"}, {"code": "T0209", "name": "Lago Delle Piazze (Diga)", "elevation": "1028", "latitude": "46.15527", "longitude": "11.277625", "active": false, "locality": "BEDOLLO"}, {"code": "T0429", "name": "Lago Di Calaita", "elevation": "1605", "latitude": "46.200619", "longitude": "11.793483", "active": true, "locality": "SIROR"}, {"code": "T0190", "name": "Lago Di Cavedine", "elevation": "245", "latitude": "45.994317", "longitude": "10.951194", "active": false, "locality": "MAROCCHE"}, {"code": "T0430", "name": "Lago di Monticello al Ghiacciaio Presena", "elevation": "2606", "latitude": "46.236101", "longitude": "10.582801", "active": false, "locality": "RIFUGIO CAPANNA PRESENA"}, {"code": "T0371", "name": "Lases (frana)", "elevation": "705", "latitude": "46.139381", "longitude": "11.223419", "active": true, "locality": "LONA-LASES"}, {"code": "T0032", "name": "Lavarone (Chiesa)", "elevation": "1155", "latitude": "45.940308", "longitude": "11.253721", "active": true, "locality": "ALTIPIANI DI FOLGARIA, LAVARONE E LUSERNA"}, {"code": "T0121", "name": "Lavis", "elevation": "230", "latitude": "46.13844", "longitude": "11.11856", "active": false, "locality": "LAVIS"}, {"code": "T0245", "name": "Levico", "elevation": "512", "latitude": "46.010939", "longitude": "11.308556", "active": false, "locality": "LEVICO"}, {"code": "T0010", "name": "Levico (Terme)", "elevation": "502", "latitude": "46.010558", "longitude": "11.305143", "active": true, "locality": "LEVICO"}, {"code": "T0119", "name": "Lisignago", "elevation": "613", "latitude": "46.159328", "longitude": "11.192088", "active": false, "locality": "LISIGNAGO"}, {"code": "T0286", "name": "Madonna Di Campiglio", "elevation": "1510", "latitude": "46.230624", "longitude": "10.827442", "active": false, "locality": "MADONNA DI CAMPIGLIO"}, {"code": "T0074", "name": "Male'", "elevation": "720", "latitude": "46.351598", "longitude": "10.918411", "active": true, "locality": "VALLI DI SOLE, PEIO E RABBI"}, {"code": "T0357", "name": "Male' (Bivacco Marinelli)", "elevation": "2100", "latitude": "46.356279", "longitude": "10.860666", "active": true, "locality": "VAL DI RABBI"}, {"code": "T0238", "name": "Malga Mare (Centrale)", "elevation": "1950", "latitude": "46.414236", "longitude": "10.680661", "active": false, "locality": "RIFUGIO CEVEDALE GUIDO LARCHER"}, {"code": "T0375", "name": "Marmolada (Pian Dei Fiacconi)", "elevation": "2676", "latitude": "46.444738", "longitude": "11.860795", "active": false, "locality": "RIFUGIO PIAN DEI FIACCONI"}, {"code": "T0404", "name": "Marmolada (Sas Del Mul)", "elevation": "2606", "latitude": "46.443614", "longitude": "11.880813", "active": true, "locality": "PASSO DI FEDAIA"}, {"code": "T0265", "name": "Mazzin", "elevation": "1380", "latitude": "46.457404", "longitude": "11.700156", "active": false, "locality": "MAZZIN MAZIN"}, {"code": "T0231", "name": "Mazzin (Campestrin)", "elevation": "1385", "latitude": "46.464781", "longitude": "11.715096", "active": false, "locality": "MAZZIN MAZIN"}, {"code": "T0237", "name": "Mazzin (Fontanazzo)", "elevation": "1400", "latitude": "46.470717", "longitude": "11.729238", "active": false, "locality": "CAMPITELLO DI FASSA"}, {"code": "T0071", "name": "Mezzana", "elevation": "905", "latitude": "46.313313", "longitude": "10.795904", "active": true, "locality": "MEZZANA"}, {"code": "T0420", "name": "Mezzano", "elevation": "640", "latitude": "46.154673", "longitude": "11.812625", "active": true, "locality": "MEZZANO"}, {"code": "T0090", "name": "Mezzolombardo (Convento)", "elevation": "225", "latitude": "46.214227", "longitude": "11.093392", "active": false, "locality": "MEZZOLOMBARDO"}, {"code": "T0408", "name": "Mezzolombardo (Maso Delle Part)", "elevation": "204", "latitude": "46.187266", "longitude": "11.104432", "active": true, "locality": "GRUMO"}, {"code": "T0098", "name": "Moena", "elevation": "1175", "latitude": "46.375771", "longitude": "11.662227", "active": false, "locality": "MOENA"}, {"code": "T0096", "name": "Moena (Diga Pezze')", "elevation": "1205", "latitude": "46.383644", "longitude": "11.664651", "active": true, "locality": "MOENA"}, {"code": "T0383", "name": "Molveno", "elevation": "835", "latitude": "46.141618", "longitude": "10.957526", "active": true, "locality": "VALLE DELLE SEGHE - MOLVENO"}, {"code": "T0182", "name": "Montagne (Larzana)", "elevation": "955", "latitude": "46.059072", "longitude": "10.7517", "active": true, "locality": "MONTAGNE"}, {"code": "T0144", "name": "Monte Bondone", "elevation": "1500", "latitude": "46.013494", "longitude": "11.05405", "active": false, "locality": "RIFUGIO VIOTE"}, {"code": "T0327", "name": "Monte Bondone (Giardino Botanico)", "elevation": "1552", "latitude": "46.021903", "longitude": "11.039878", "active": false, "locality": "RIFUGIO VIOTE"}, {"code": "T0368", "name": "Monte Bondone (Viote)", "elevation": "1490", "latitude": "46.013651", "longitude": "11.054869", "active": true, "locality": "RIFUGIO VIOTE"}, {"code": "T0169", "name": "Monte Groste' (Rifugio Graffer)", "elevation": "2258", "latitude": "46.217722", "longitude": "10.889755", "active": true, "locality": "RIFUGIO GRAFFER"}, {"code": "T0226", "name": "Monte Ruioch (Rifugio Tonini)", "elevation": "1900", "latitude": "46.167258", "longitude": "11.351504", "active": true, "locality": "RIFUGIO TONINI"}, {"code": "T0151", "name": "Mori (Loppio)", "elevation": "230", "latitude": "45.855333", "longitude": "10.931371", "active": true, "locality": "VAL DI GRESTA"}, {"code": "T0186", "name": "Nembia (Centrale)", "elevation": "810", "latitude": "46.106228", "longitude": "10.938022", "active": false, "locality": "VAL D' AMBIEZ"}, {"code": "T0406", "name": "Paganella (Malga Terlago)", "elevation": "1790", "latitude": "46.143008", "longitude": "11.021504", "active": true, "locality": "RIFUGIO LA RODA (PAGANELLA)"}, {"code": "T0267", "name": "Paneveggio (Bellamonte)", "elevation": "1415", "latitude": "46.311503", "longitude": "11.675589", "active": false, "locality": "VAL TRAVIGNOLO"}, {"code": "T0008", "name": "Paneveggio (campo neve)", "elevation": "1540", "latitude": "46.309517", "longitude": "11.747509", "active": true, "locality": "FORESTA DI PANEVEGGIO"}, {"code": "T0355", "name": "Passo Brocon", "elevation": "1610", "latitude": "46.116677", "longitude": "11.663267", "active": true, "locality": "PASSO DEL BROCON"}, {"code": "T0168", "name": "Passo Campo Carlo Magno", "elevation": "1681", "latitude": "46.242483", "longitude": "10.838355", "active": false, "locality": "CAMPO CARLO MAGNO"}, {"code": "T0024", "name": "Passo Cereda", "elevation": "1322", "latitude": "46.195903", "longitude": "11.915734", "active": true, "locality": "PASSO CEREDA"}, {"code": "T0094", "name": "Passo Costalunga", "elevation": "1750", "latitude": "46.404528", "longitude": "11.613615", "active": true, "locality": "PASSO COSTALUNGA"}, {"code": "T0384", "name": "Passo Manghen", "elevation": "2035", "latitude": "46.174924", "longitude": "11.439944", "active": true, "locality": "RIFUGIO PASSO MANGHEN"}, {"code": "T0082", "name": "Passo Mendola", "elevation": "1315", "latitude": "46.419179", "longitude": "11.189336", "active": true, "locality": "RUFFRE"}, {"code": "T0425", "name": "Passo Pian Delle Fugazze", "elevation": "1170", "latitude": "45.758997", "longitude": "11.174829", "active": true, "locality": "PASSO PIAN DELLE FUGAZZE"}, {"code": "T0103", "name": "Passo Rolle", "elevation": "2012", "latitude": "46.297919", "longitude": "11.787124", "active": true, "locality": "PASSO ROLLE"}, {"code": "T0369", "name": "Passo Sommo", "elevation": "1360", "latitude": "45.918646", "longitude": "11.206083", "active": true, "locality": "RIFUGIO STELLA D'ITALIA"}, {"code": "T0360", "name": "Passo Tonale", "elevation": "1875", "latitude": "46.262564", "longitude": "10.596825", "active": true, "locality": "PASSO DEL TONALE"}, {"code": "T0069", "name": "Passo Tonale", "elevation": "1795", "latitude": "46.263301", "longitude": "10.611068", "active": false, "locality": "PASSO DEL TONALE"}, {"code": "T0104", "name": "Passo Valles", "elevation": "2032", "latitude": "46.33839", "longitude": "11.799791", "active": true, "locality": "VAL VENEGIOTTA"}, {"code": "T0064", "name": "Peio", "elevation": "1565", "latitude": "46.363982", "longitude": "10.67566", "active": false, "locality": "PEIO"}, {"code": "T0366", "name": "Peio", "elevation": "1585", "latitude": "46.364364", "longitude": "10.67783", "active": true, "locality": "PEIO"}, {"code": "T0372", "name": "Peio (Crozzi Taviela)", "elevation": "2960", "latitude": "46.384176", "longitude": "10.631957", "active": true, "locality": "VAL DE LA MITE"}, {"code": "T0409", "name": "Pergine Valsugana", "elevation": "498", "latitude": "46.06188", "longitude": "11.244267", "active": true, "locality": "PERGINE VALSUGANA"}, {"code": "T0092", "name": "Pian Fedaia (Diga)", "elevation": "2063", "latitude": "46.459032", "longitude": "11.862873", "active": true, "locality": "RIFUGIO PIAN DEI FIACCONI"}, {"code": "T0063", "name": "Pian Palu' (Diga)", "elevation": "1800", "latitude": "46.336633", "longitude": "10.613936", "active": true, "locality": "ALPE VERNIANA"}, {"code": "T0380", "name": "Pian Palu' (Malga Giumella)", "elevation": "1945", "latitude": "46.340912", "longitude": "10.612562", "active": true, "locality": "ALPE VERNIANA"}, {"code": "T0140", "name": "Piazze Di Pine'", "elevation": "1025", "latitude": "46.14997", "longitude": "11.273534", "active": false, "locality": "BEDOLLO"}, {"code": "T0428", "name": "Pieve Di Bono", "elevation": "525", "latitude": "45.940987", "longitude": "10.642872", "active": true, "locality": "PIEVE DI BONO"}, {"code": "T0422", "name": "Pieve Tesino (Malga Sorgazza)", "elevation": "1435", "latitude": "46.133545", "longitude": "11.59989", "active": true, "locality": "VAL MALENE"}, {"code": "T0018", "name": "Pieve Tesino (O.P. Enel)", "elevation": "785", "latitude": "46.070244", "longitude": "11.619803", "active": false, "locality": "PIEVE TESINO"}, {"code": "T0175", "name": "Pinzolo", "elevation": "760", "latitude": "46.156507", "longitude": "10.757484", "active": true, "locality": "PINZOLO"}, {"code": "T0435", "name": "Pinzolo (Malga Zeledria)", "elevation": "1775", "latitude": "46.244878", "longitude": "10.834362", "active": true, "locality": "CAMPO CARLO MAGNO"}, {"code": "T0239", "name": "Pinzolo (Ponte Plaza)", "elevation": "1150", "latitude": "46.198195", "longitude": "10.817967", "active": false, "locality": "VAL BRENTA"}, {"code": "T0142", "name": "Povo", "elevation": "430", "latitude": "46.066882", "longitude": "11.157728", "active": false, "locality": "COGNOLA"}, {"code": "T0120", "name": "Pozzolago (Centrale)", "elevation": "420", "latitude": "46.165408", "longitude": "11.231851", "active": false, "locality": "CEMBRA"}, {"code": "T0167", "name": "Pradalago (Rifugio Viviani)", "elevation": "2084", "latitude": "46.249695", "longitude": "10.813895", "active": true, "locality": "RIFUGIO MALGHETTE"}, {"code": "T0389", "name": "Predazzo", "elevation": "1000", "latitude": "46.297866", "longitude": "11.598248", "active": true, "locality": "RONCHI"}, {"code": "T0102", "name": "Predazzo (Centrale)", "elevation": "1005", "latitude": "46.310012", "longitude": "11.595069", "active": false, "locality": "PREDAZZO"}, {"code": "T0324", "name": "Prezzo (frana)", "elevation": "680", "latitude": "45.93418", "longitude": "10.631745", "active": false, "locality": "PREZZO"}, {"code": "T0241", "name": "Rabbi (Piazzola)", "elevation": "1310", "latitude": "46.410657", "longitude": "10.819799", "active": false, "locality": "RABBI"}, {"code": "T0076", "name": "Rabbi (San Bernardo)", "elevation": "1132", "latitude": "46.401374", "longitude": "10.849515", "active": true, "locality": "VAL DI RABBI"}, {"code": "T0075", "name": "Rabbi (Somrabbi)", "elevation": "1352", "latitude": "46.410329", "longitude": "10.803614", "active": false, "locality": "RABBI"}, {"code": "T0240", "name": "Rabbi (Tasse')", "elevation": "1010", "latitude": "46.392538", "longitude": "10.857996", "active": false, "locality": "VAL DI RABBI"}, {"code": "T0436", "name": "Ragoli (Rifugio Alimonta)", "elevation": "2577", "latitude": "46.172544", "longitude": "10.890629", "active": true, "locality": "RIFUGIO ALIMONTA"}, {"code": "T0298", "name": "Riva", "elevation": "82", "latitude": "45.891381", "longitude": "10.845346", "active": false, "locality": "RIVA DEL G."}, {"code": "T0236", "name": "Romeno", "elevation": "958", "latitude": "46.390687", "longitude": "11.118861", "active": true, "locality": "ROMENO"}, {"code": "T0424", "name": "Ronchi Valsugana (Malga Casapinello)", "elevation": "1710", "latitude": "46.095996", "longitude": "11.402298", "active": true, "locality": "RIFUGIO ERDEMOLO"}, {"code": "T0211", "name": "Ronzo", "elevation": "974", "latitude": "45.891054", "longitude": "10.952227", "active": false, "locality": "RONZO-CHIENIS"}, {"code": "T0147", "name": "Rovereto", "elevation": "203", "latitude": "45.896325", "longitude": "11.043987", "active": true, "locality": "ROVERETO"}, {"code": "T0374", "name": "Rovereto (Malga Zugna)", "elevation": "1620", "latitude": "45.807557", "longitude": "11.058163", "active": true, "locality": "RIFUGIO MONTE ZUGNA"}, {"code": "T0417", "name": "Rumo (Lanza)", "elevation": "1100", "latitude": "46.45391", "longitude": "11.008531", "active": true, "locality": "MOCENIGO"}, {"code": "T0184", "name": "San Lorenzo In Banale", "elevation": "734", "latitude": "46.075645", "longitude": "10.899433", "active": false, "locality": "DORSINO"}, {"code": "T0414", "name": "San Lorenzo In Banale (Pergoletti)", "elevation": "685", "latitude": "46.066311", "longitude": "10.9113", "active": true, "locality": "SAN LORENZO IN BANALE"}, {"code": "T0021", "name": "San Martino Di Castrozza", "elevation": "1450", "latitude": "46.261279", "longitude": "11.801453", "active": false, "locality": "PRIMIERO - SAN MARTINO"}, {"code": "T0450", "name": "San Martino di Castrozza", "elevation": "1470", "latitude": "46.261622", "longitude": "11.796306", "active": true, "locality": "PRIMIERO E VANOI"}, {"code": "T0038", "name": "San Michele All'Adige", "elevation": "205", "latitude": "46.192588", "longitude": "11.13246", "active": false, "locality": "SAN MICHELE ALL'ADIGE"}, {"code": "T0242", "name": "San Silvestro (Centrale)", "elevation": "577", "latitude": "46.134178", "longitude": "11.769207", "active": false, "locality": "PASSO GOBBERA"}, {"code": "T0084", "name": "Santa Giustina (Diga)", "elevation": "532", "latitude": "46.345656", "longitude": "11.061731", "active": false, "locality": "TASSULLO"}, {"code": "T0189", "name": "Santa Massenza (Centrale)", "elevation": "252", "latitude": "46.065195", "longitude": "10.980275", "active": true, "locality": "VALLE DEI LAGHI"}, {"code": "T0172", "name": "Sant'Antonio Di Mavignola", "elevation": "1100", "latitude": "46.188471", "longitude": "10.784498", "active": false, "locality": "VAL DI CAMPIGLIO"}, {"code": "T0139", "name": "Sant'Orsola Terme", "elevation": "925", "latitude": "46.107093", "longitude": "11.30223", "active": true, "locality": "SANT'ORSOLA"}, {"code": "T0396", "name": "Sarca di Val Genova al Ghiacciaio del Mandrone", "elevation": "2595", "latitude": "46.186406", "longitude": "10.565029", "active": true, "locality": "MANDRONE"}, {"code": "T0115", "name": "Segonzano (Gresta)", "elevation": "660", "latitude": "46.211224", "longitude": "11.289609", "active": false, "locality": "GRUMES"}, {"code": "T0116", "name": "Segonzano (Scancio)", "elevation": "720", "latitude": "46.191559", "longitude": "11.260009", "active": false, "locality": "SEGONZANO"}, {"code": "T0212", "name": "Spormaggiore", "elevation": "555", "latitude": "46.219949", "longitude": "11.046814", "active": true, "locality": "SPORMAGGIORE"}, {"code": "T0183", "name": "Stenico", "elevation": "632", "latitude": "46.050099", "longitude": "10.855215", "active": false, "locality": "STENICO"}, {"code": "T0141", "name": "Sternigo", "elevation": "1040", "latitude": "46.139933", "longitude": "11.252223", "active": false, "locality": "ALTOPIANO DI PINE'"}, {"code": "T0393", "name": "Storo", "elevation": "385", "latitude": "45.846767", "longitude": "10.562447", "active": true, "locality": "STORO"}, {"code": "T0163", "name": "Storo (Centrale)", "elevation": "393", "latitude": "45.859267", "longitude": "10.575409", "active": false, "locality": "STORO"}, {"code": "T0370", "name": "Storo (Lodrone)", "elevation": "392", "latitude": "45.829107", "longitude": "10.535649", "active": false, "locality": "BONDONE"}, {"code": "T0110", "name": "Stramentizzo (Diga)", "elevation": "815", "latitude": "46.264625", "longitude": "11.376144", "active": false, "locality": "CAPRIANA"}, {"code": "T0392", "name": "Telve", "elevation": "410", "latitude": "46.058046", "longitude": "11.477478", "active": true, "locality": "VALSUGANA"}, {"code": "T0014", "name": "Telve (Pontarso)", "elevation": "925", "latitude": "46.115819", "longitude": "11.49451", "active": true, "locality": "VAL CALAMENTO"}, {"code": "T0003", "name": "Tenna", "elevation": "569", "latitude": "46.015735", "longitude": "11.263632", "active": false, "locality": "TENNA"}, {"code": "T0200", "name": "Tenno", "elevation": "415", "latitude": "45.91905", "longitude": "10.831278", "active": true, "locality": "TENNO"}, {"code": "T0148", "name": "Terragnolo (Piazza)", "elevation": "800", "latitude": "45.879641", "longitude": "11.151135", "active": true, "locality": "TERRAGNOLO"}, {"code": "T0376", "name": "Tesero (Pala De Santa)", "elevation": "2200", "latitude": "46.346665", "longitude": "11.530301", "active": false, "locality": "PAMPEAGO"}, {"code": "T0179", "name": "Tione", "elevation": "533", "latitude": "46.041087", "longitude": "10.730879", "active": true, "locality": "GIUDICARIE INTERIORI"}, {"code": "T0026", "name": "Tonadico", "elevation": "744", "latitude": "46.179197", "longitude": "11.836033", "active": false, "locality": "TONADICO"}, {"code": "T0419", "name": "Tonadico (Castelpietra)", "elevation": "1045", "latitude": "46.198934", "longitude": "11.865668", "active": true, "locality": "VAL CANALI"}, {"code": "T0193", "name": "Torbole (Belvedere)", "elevation": "90", "latitude": "45.870095", "longitude": "10.877355", "active": true, "locality": "TORBOLE"}, {"code": "T0354", "name": "Tremalzo", "elevation": "1560", "latitude": "45.841658", "longitude": "10.684142", "active": true, "locality": "TREMALZO"}, {"code": "T0356", "name": "Trento (Aeroporto)", "elevation": "185", "latitude": "46.015993", "longitude": "11.12606", "active": false, "locality": "TRENTO - AEROPORTO CAPRONI"}, {"code": "T0129", "name": "Trento (Laste)", "elevation": "312", "latitude": "46.071801", "longitude": "11.135703", "active": true, "locality": "LE LASTE"}, {"code": "T0454", "name": "Trento (Liceo Galilei)", "elevation": "255", "latitude": "46.064375", "longitude": "11.13742", "active": true, "locality": "LE LASTE"}, {"code": "T0137", "name": "Trento (Piazza Vittoria)", "elevation": "196", "latitude": "46.067661", "longitude": "11.123841", "active": false, "locality": "TRENTO"}, {"code": "T0135", "name": "Trento (Roncafort)", "elevation": "194", "latitude": "46.095645", "longitude": "11.10137", "active": true, "locality": "RONCAFORT"}, {"code": "T0136", "name": "Trento (Ufficio)", "elevation": "218", "latitude": "46.09002", "longitude": "11.11796", "active": false, "locality": "MARTIGNANO"}, {"code": "T0088", "name": "Tres", "elevation": "838", "latitude": "46.32065", "longitude": "11.101437", "active": true, "locality": "TRES"}, {"code": "T0109", "name": "Val Cadino (Segheria Canton)", "elevation": "964", "latitude": "46.245819", "longitude": "11.414535", "active": false, "locality": "VAL DI FIEMME"}, {"code": "T0413", "name": "Val D'Ambiez", "elevation": "1888", "latitude": "46.133428", "longitude": "10.881405", "active": true, "locality": "RIFUGIO AL CACCIATORE"}, {"code": "T0177", "name": "Val di Breguzzo (Ponte Arno')", "elevation": "1148", "latitude": "46.032015", "longitude": "10.640606", "active": true, "locality": "VAL DI BREGUZZO"}, {"code": "T0166", "name": "Val Di Genova (O.P. Enel)", "elevation": "900", "latitude": "46.169604", "longitude": "10.727251", "active": false, "locality": "RIFUGIO CASCATE DEL NARDIS"}, {"code": "T0433", "name": "Val Genova (Malga Caret)", "elevation": "1418", "latitude": "46.18142", "longitude": "10.634818", "active": true, "locality": "VAL DI GENOVA"}, {"code": "T0027", "name": "Val Noana (Diga)", "elevation": "1030", "latitude": "46.138717", "longitude": "11.839286", "active": true, "locality": "VAL NOANA"}, {"code": "T0432", "name": "Val Sella (Montagnola)", "elevation": "956", "latitude": "46.006134", "longitude": "11.379319", "active": true, "locality": "VAL DI SELLA"}, {"code": "T0114", "name": "Valda", "elevation": "855", "latitude": "46.209157", "longitude": "11.267122", "active": false, "locality": "VALDA"}, {"code": "T0149", "name": "Vallarsa (Diga Di Speccheri)", "elevation": "875", "latitude": "45.76847", "longitude": "11.134972", "active": false, "locality": "PASSO PIAN DELLE FUGAZZE"}, {"code": "T0150", "name": "Vallarsa (Foxi)", "elevation": "665", "latitude": "45.790139", "longitude": "11.110993", "active": false, "locality": "VALLARSA"}, {"code": "T0363", "name": "Vallarsa (Malga Boffetal)", "elevation": "1550", "latitude": "45.750643", "longitude": "11.163452", "active": false, "locality": "PASSO PIAN DELLE FUGAZZE"}, {"code": "T0381", "name": "Vallarsa (Parrocchia)", "elevation": "737", "latitude": "45.780307", "longitude": "11.122849", "active": true, "locality": "VALLARSA"}, {"code": "T0364", "name": "Vermiglio (Capanna Presena)", "elevation": "2715", "latitude": "46.228822", "longitude": "10.578715", "active": true, "locality": "RIFUGIO CAPANNA PRESENA"}, {"code": "T0416", "name": "Vermiglio (Masi di Palu')", "elevation": "1575", "latitude": "46.284146", "longitude": "10.694689", "active": false, "locality": "VERMIGLIO"}, {"code": "T0243", "name": "Vetriolo", "elevation": "1490", "latitude": "46.04234", "longitude": "11.305974", "active": false, "locality": "MONTE PANAROTTA"}, {"code": "T0228", "name": "Vigo Di Fassa (Stalon De Vael)", "elevation": "2040", "latitude": "46.424419", "longitude": "11.636119", "active": false, "locality": "RIFUGIO RODA DI VAEL"}, {"code": "T0326", "name": "Vigolo Vattaro (frana)", "elevation": "815", "latitude": "46.009208", "longitude": "11.181368", "active": false, "locality": "VIGOLO VATTARO"}, {"code": "T0325", "name": "Villa Rendena (frana)", "elevation": "840", "latitude": "46.06065", "longitude": "10.722841", "active": false, "locality": "VILLA RENDENA"}, {"code": "T0411", "name": "Villa Rendena (Rifugio Gork)", "elevation": "1203", "latitude": "46.080894", "longitude": "10.660678", "active": true, "locality": "RIFUGIO GORCK"}, {"code": "T0101", "name": "Zambana (Idrovora)", "elevation": "205", "latitude": "46.156797", "longitude": "11.079051", "active": true, "locality": "ZAMBANA"}, {"code": "T0059", "name": "Ziano Di Fiemme (Malga Sadole)", "elevation": "1608", "latitude": "46.260619", "longitude": "11.597609", "active": true, "locality": "RIFUGIO CAURIOL"}, {"code": "T0412", "name": "Zuclo (Malga Casinot)", "elevation": "1695", "latitude": "45.971281", "longitude": "10.742036", "active": true, "locality": "CORNO DI PICHEA"}]